<ns:getRegionResortsLastUpdatedResponse xmlns:ns="http://ski2009.webservice.ots"><ns:return type="ots.webservice.ski2009.ResortUpdateRecord"><ns:id>1343</ns:id><ns:latitude>51.083239</ns:latitude><ns:longitude>-114.215511</ns:longitude><ns:name>Canada Olympic Park</ns:name><ns:physical_address>88 Canada Olympic Road SW</ns:physical_address><ns:physical_city>Calgary</ns:physical_city><ns:profile_updated>2010-11-22T17:33:50 -500</ns:profile_updated><ns:snow_updated>2011-02-22T10:03:10 -500</ns:snow_updated></ns:return><ns:return type="ots.webservice.ski2009.ResortUpdateRecord"><ns:id>1346</ns:id><ns:latitude>49.491695</ns:latitude><ns:longitude>-113.951668</ns:longitude><ns:name>Castle Mountain</ns:name><ns:physical_address>End of Hwy 774</ns:physical_address><ns:physical_city>Pincher Creek</ns:physical_city><ns:profile_updated>2010-11-22T17:33:50 -500</ns:profile_updated><ns:snow_updated>2011-02-22T10:03:28 -500</ns:snow_updated></ns:return><ns:return type="ots.webservice.ski2009.ResortUpdateRecord"><ns:id>368</ns:id><ns:latitude>51.44340163</ns:latitude><ns:longitude>-116.1668318</ns:longitude><ns:name>Lake Louise</ns:name><ns:physical_address>#1 Whitehorn Road</ns:physical_address><ns:physical_city>Lake Louise</ns:physical_city><ns:profile_updated>2011-02-18T17:05:23 -500</ns:profile_updated><ns:snow_updated>2011-02-22T09:58:08 -500</ns:snow_updated></ns:return><ns:return type="ots.webservice.ski2009.ResortUpdateRecord"><ns:id>229</ns:id><ns:latitude>52.79519089</ns:latitude><ns:longitude>-118.0838742</ns:longitude><ns:name>Marmot Basin</ns:name><ns:physical_address>1 Marmot Basin Road</ns:physical_address><ns:physical_city>Jasper</ns:physical_city><ns:profile_updated>2010-11-08T17:16:03 -500</ns:profile_updated><ns:snow_updated>2011-02-22T10:03:40 -500</ns:snow_updated></ns:return><ns:return type="ots.webservice.ski2009.ResortUpdateRecord"><ns:id>802</ns:id><ns:latitude>51.1803</ns:latitude><ns:longitude>-115.576</ns:longitude><ns:name>Mt. Norquay</ns:name><ns:physical_address>#2 Mt. Norquay Rd.</ns:physical_address><ns:physical_city>Banff</ns:physical_city><ns:profile_updated>2011-02-18T17:05:44 -500</ns:profile_updated><ns:snow_updated>2011-02-22T09:58:15 -500</ns:snow_updated></ns:return><ns:return type="ots.webservice.ski2009.ResortUpdateRecord"><ns:id>292</ns:id><ns:latitude>50.94178575</ns:latitude><ns:longitude>-115.1638912</ns:longitude><ns:name>Nakiska</ns:name><ns:physical_address>Suite 505 1550 8th St. SW</ns:physical_address><ns:physical_city>Calgary</ns:physical_city><ns:profile_updated>2010-11-22T17:33:50 -500</ns:profile_updated><ns:snow_updated>2011-02-22T08:27:50 -500</ns:snow_updated></ns:return><ns:return type="ots.webservice.ski2009.ResortUpdateRecord"><ns:id>448</ns:id><ns:latitude>51.11129828</ns:latitude><ns:longitude>-115.7647322</ns:longitude><ns:name>Sunshine Village</ns:name><ns:physical_address>1037 11th Ave. SW</ns:physical_address><ns:physical_city>Calgary</ns:physical_city><ns:profile_updated>2011-02-18T17:06:15 -500</ns:profile_updated><ns:snow_updated>2011-02-22T09:58:21 -500</ns:snow_updated></ns:return></ns:getRegionResortsLastUpdatedResponse>