<ns:getRegionResortsLastUpdatedResponse xmlns:ns="http://ski2009.webservice.ots"><ns:return type="ots.webservice.ski2009.ResortUpdateRecord"><ns:id>157</ns:id><ns:latitude>43.78768094</ns:latitude><ns:longitude>-110.9583943</ns:longitude><ns:name>Grand Targhee</ns:name><ns:physical_address>3300 E. Ski Hill Road</ns:physical_address><ns:physical_city>Alta</ns:physical_city><ns:profile_updated>2010-11-22T17:34:07 -500</ns:profile_updated><ns:snow_updated>2011-02-22T08:26:58 -500</ns:snow_updated></ns:return><ns:return type="ots.webservice.ski2009.ResortUpdateRecord"><ns:id>176</ns:id><ns:latitude>42.860937</ns:latitude><ns:longitude>-106.298642</ns:longitude><ns:name>Hogadon</ns:name><ns:physical_address>1800 East K St.</ns:physical_address><ns:physical_city>Casper</ns:physical_city><ns:profile_updated>2010-12-02T13:57:12 -500</ns:profile_updated><ns:snow_updated>2011-02-22T13:32:23 -500</ns:snow_updated></ns:return><ns:return type="ots.webservice.ski2009.ResortUpdateRecord"><ns:id>191</ns:id><ns:latitude>43.59765127</ns:latitude><ns:longitude>-110.8266309</ns:longitude><ns:name>Jackson Hole</ns:name><ns:physical_address>3395 McCollister</ns:physical_address><ns:physical_city>Teton Village</ns:physical_city><ns:profile_updated>2010-10-12T12:32:49 -500</ns:profile_updated><ns:snow_updated>2011-02-22T08:40:03 -500</ns:snow_updated></ns:return><ns:return type="ots.webservice.ski2009.ResortUpdateRecord"><ns:id>12</ns:id><ns:latitude>43.473263</ns:latitude><ns:longitude>-110.75751</ns:longitude><ns:name>Snow King</ns:name><ns:physical_address>400 E. Snow King Ave.</ns:physical_address><ns:physical_city>Jackson</ns:physical_city><ns:profile_updated>2011-01-01T10:12:51 -500</ns:profile_updated><ns:snow_updated>2011-02-22T13:32:49 -500</ns:snow_updated></ns:return><ns:return type="ots.webservice.ski2009.ResortUpdateRecord"><ns:id>410</ns:id><ns:latitude>41.3149</ns:latitude><ns:longitude>-105.645</ns:longitude><ns:name>Snowy Range</ns:name><ns:physical_address>3254 Hwy 130</ns:physical_address><ns:physical_city>Centennial</ns:physical_city><ns:profile_updated>2010-11-30T12:28:53 -500</ns:profile_updated><ns:snow_updated>2011-02-22T10:56:57 -500</ns:snow_updated></ns:return><ns:return type="ots.webservice.ski2009.ResortUpdateRecord"><ns:id>495</ns:id><ns:latitude>42.8429</ns:latitude><ns:longitude>-109.8367</ns:longitude><ns:name>White Pine</ns:name><ns:physical_address>I-80</ns:physical_address><ns:physical_city>Pinedale</ns:physical_city><ns:profile_updated>2010-11-22T17:30:08 -500</ns:profile_updated><ns:snow_updated>2011-02-21T14:56:21 -500</ns:snow_updated></ns:return></ns:getRegionResortsLastUpdatedResponse>