<ns:getRegionResortsLastUpdatedResponse xmlns:ns="http://ski2009.webservice.ots"><ns:return type="ots.webservice.ski2009.ResortUpdateRecord"><ns:id>1982</ns:id><ns:latitude>51.285027</ns:latitude><ns:longitude>7.954641</ns:longitude><ns:name>Allendorf</ns:name><ns:physical_address>Allendorfer Strasser 96</ns:physical_address><ns:physical_city>Sundern</ns:physical_city><ns:profile_updated>2011-02-03T21:30:48 -500</ns:profile_updated><ns:snow_updated>2010-04-19T11:48:20 -500</ns:snow_updated></ns:return><ns:return type="ots.webservice.ski2009.ResortUpdateRecord"><ns:id>2743</ns:id><ns:latitude>51.190692</ns:latitude><ns:longitude>8.467335</ns:longitude><ns:name>Altastenberg</ns:name><ns:physical_address>Renauweg 23</ns:physical_address><ns:physical_city>Winterberg / Altastenberg</ns:physical_city><ns:profile_updated>2011-02-03T21:30:48 -500</ns:profile_updated><ns:snow_updated>2011-02-22T04:07:05 -500</ns:snow_updated></ns:return><ns:return type="ots.webservice.ski2009.ResortUpdateRecord"><ns:id>2368</ns:id><ns:latitude>51.803742</ns:latitude><ns:longitude>10.445949</ns:longitude><ns:name>Altenau</ns:name><ns:physical_address>Hüttenstrasse 9</ns:physical_address><ns:physical_city>Altenau</ns:physical_city><ns:profile_updated>2011-02-03T21:30:48 -500</ns:profile_updated><ns:snow_updated>2011-02-22T04:07:05 -500</ns:snow_updated></ns:return><ns:return type="ots.webservice.ski2009.ResortUpdateRecord"><ns:id>2478</ns:id><ns:latitude>50.765709</ns:latitude><ns:longitude>13.753772</ns:longitude><ns:name>Altenberg</ns:name><ns:physical_address>Am Bahnhof 1</ns:physical_address><ns:physical_city>Altenberg</ns:physical_city><ns:profile_updated>2011-02-03T21:30:48 -500</ns:profile_updated><ns:snow_updated>2011-02-22T11:05:17 -500</ns:snow_updated></ns:return><ns:return type="ots.webservice.ski2009.ResortUpdateRecord"><ns:id>2199</ns:id><ns:latitude>49.122545</ns:latitude><ns:longitude>13.203482</ns:longitude><ns:name>Arber - Bayerisch Eisenstein</ns:name><ns:physical_address>Haupstraße</ns:physical_address><ns:physical_city>Bayer. Eisenstein</ns:physical_city><ns:profile_updated>2011-02-03T21:30:48 -500</ns:profile_updated><ns:snow_updated>2011-02-22T04:07:05 -500</ns:snow_updated></ns:return><ns:return type="ots.webservice.ski2009.ResortUpdateRecord"><ns:id>1865</ns:id><ns:latitude>49.0833333</ns:latitude><ns:longitude>12.4833333</ns:longitude><ns:name>Arrach</ns:name><ns:physical_address>Lamerstaße 3</ns:physical_address><ns:physical_city>Arrach</ns:physical_city><ns:profile_updated>2011-02-03T21:30:48 -500</ns:profile_updated><ns:snow_updated>2011-02-22T11:05:13 -500</ns:snow_updated></ns:return><ns:return type="ots.webservice.ski2009.ResortUpdateRecord"><ns:id>2590</ns:id><ns:latitude>47.718066</ns:latitude><ns:longitude>12.293642</ns:longitude><ns:name>Aschau im Chiemgau</ns:name><ns:physical_address>Kampenwandstraße</ns:physical_address><ns:physical_city>Aschau im Chiengau</ns:physical_city><ns:profile_updated>2010-01-08T17:14:40 -500</ns:profile_updated><ns:snow_updated>2011-02-22T11:05:16 -500</ns:snow_updated></ns:return><ns:return type="ots.webservice.ski2009.ResortUpdateRecord"><ns:id>1981</ns:id><ns:latitude>47.748392</ns:latitude><ns:longitude>11.457484</ns:longitude><ns:name>Bad Heilbrunn</ns:name><ns:physical_address>Woernerweg 4
</ns:physical_address><ns:physical_city>Bad Heilbrunn</ns:physical_city><ns:profile_updated>2011-02-03T21:30:48 -500</ns:profile_updated><ns:snow_updated>2010-04-19T11:48:43 -500</ns:snow_updated></ns:return><ns:return type="ots.webservice.ski2009.ResortUpdateRecord"><ns:id>2419</ns:id><ns:latitude>50.324219</ns:latitude><ns:longitude>10.208851</ns:longitude><ns:name>Bad Neustadt an der Saale</ns:name><ns:physical_address>Straße 2</ns:physical_address><ns:physical_city>Bad Neustadt an der Saale</ns:physical_city><ns:profile_updated>2011-02-03T21:30:49 -500</ns:profile_updated><ns:snow_updated>2010-04-19T11:49:04 -500</ns:snow_updated></ns:return><ns:return type="ots.webservice.ski2009.ResortUpdateRecord"><ns:id>2268</ns:id><ns:latitude>47.7479</ns:latitude><ns:longitude>11.5158</ns:longitude><ns:name>Bad Tölz</ns:name><ns:physical_address xmlns:xsi="http://www.w3.org/2001/XMLSchema-instance" xsi:nil="true" /><ns:physical_city>Bad Tolz</ns:physical_city><ns:profile_updated>2011-02-03T21:30:48 -500</ns:profile_updated><ns:snow_updated>2011-02-22T11:05:13 -500</ns:snow_updated></ns:return><ns:return type="ots.webservice.ski2009.ResortUpdateRecord"><ns:id>2437</ns:id><ns:latitude>47.710843</ns:latitude><ns:longitude>11.725381</ns:longitude><ns:name>Bad Wiessee</ns:name><ns:physical_address>Adrian-Stoop-Straße 20, Postfach 120</ns:physical_address><ns:physical_city>Bad Wiessee</ns:physical_city><ns:profile_updated>2011-02-03T21:30:48 -500</ns:profile_updated><ns:snow_updated>2011-02-22T11:05:13 -500</ns:snow_updated></ns:return><ns:return type="ots.webservice.ski2009.ResortUpdateRecord"><ns:id>1810</ns:id><ns:latitude>48.508186</ns:latitude><ns:longitude>8.369076</ns:longitude><ns:name>Baiersbronn</ns:name><ns:physical_address>Rosenplatz 3</ns:physical_address><ns:physical_city>Bäiersbronn</ns:physical_city><ns:profile_updated>2011-02-03T21:30:48 -500</ns:profile_updated><ns:snow_updated>2011-02-22T11:05:18 -500</ns:snow_updated></ns:return><ns:return type="ots.webservice.ski2009.ResortUpdateRecord"><ns:id>2289</ns:id><ns:latitude>47.426643</ns:latitude><ns:longitude>10.038561</ns:longitude><ns:name>Balderschwang</ns:name><ns:physical_address>Dorf 16</ns:physical_address><ns:physical_city>Balderschwang</ns:physical_city><ns:profile_updated>2011-01-21T20:43:35 -500</ns:profile_updated><ns:snow_updated>2011-02-22T04:07:04 -500</ns:snow_updated></ns:return><ns:return type="ots.webservice.ski2009.ResortUpdateRecord"><ns:id>2057</ns:id><ns:latitude>47.761781</ns:latitude><ns:longitude>12.560276</ns:longitude><ns:name>Bergen</ns:name><ns:physical_address>Raiffeisenplatz 4</ns:physical_address><ns:physical_city>Bergen A. Hochfelln</ns:physical_city><ns:profile_updated>2011-02-03T21:30:48 -500</ns:profile_updated><ns:snow_updated>2011-02-22T04:07:05 -500</ns:snow_updated></ns:return><ns:return type="ots.webservice.ski2009.ResortUpdateRecord"><ns:id>1915</ns:id><ns:latitude>47.80128</ns:latitude><ns:longitude>8.03665</ns:longitude><ns:name>Bernau</ns:name><ns:physical_address>Rathausstrasse 18</ns:physical_address><ns:physical_city>Bernau</ns:physical_city><ns:profile_updated>2011-02-03T21:30:49 -500</ns:profile_updated><ns:snow_updated>2011-02-22T11:05:14 -500</ns:snow_updated></ns:return><ns:return type="ots.webservice.ski2009.ResortUpdateRecord"><ns:id>1794</ns:id><ns:latitude>47.5333333</ns:latitude><ns:longitude>10.2666667</ns:longitude><ns:name>Blaichach - Gunzesrieder Tal</ns:name><ns:physical_address xmlns:xsi="http://www.w3.org/2001/XMLSchema-instance" xsi:nil="true" /><ns:physical_city>Blaichach - Gunzesrieder Tal</ns:physical_city><ns:profile_updated>2011-02-03T21:30:48 -500</ns:profile_updated><ns:snow_updated>2010-04-19T11:50:18 -500</ns:snow_updated></ns:return><ns:return type="ots.webservice.ski2009.ResortUpdateRecord"><ns:id>1907</ns:id><ns:latitude>51.25</ns:latitude><ns:longitude>8.4</ns:longitude><ns:name>Bödefeld</ns:name><ns:physical_address>St.-Vitus-Schuetzen-Straße 1</ns:physical_address><ns:physical_city>Bödefeld</ns:physical_city><ns:profile_updated>2011-02-03T21:30:48 -500</ns:profile_updated><ns:snow_updated>2011-02-22T04:07:06 -500</ns:snow_updated></ns:return><ns:return type="ots.webservice.ski2009.ResortUpdateRecord"><ns:id>2426</ns:id><ns:latitude>49.076178</ns:latitude><ns:longitude>13.113502</ns:longitude><ns:name>Bodenmais</ns:name><ns:physical_address>Bahnhofstraße 56</ns:physical_address><ns:physical_city>Bodenmais</ns:physical_city><ns:profile_updated>2011-02-03T21:30:48 -500</ns:profile_updated><ns:snow_updated>2011-02-22T11:05:20 -500</ns:snow_updated></ns:return><ns:return type="ots.webservice.ski2009.ResortUpdateRecord"><ns:id>1971</ns:id><ns:latitude>47.46074</ns:latitude><ns:longitude>10.233149</ns:longitude><ns:name>Bolsterlang</ns:name><ns:physical_address>Rathausweg 4</ns:physical_address><ns:physical_city>Bolsterlang</ns:physical_city><ns:profile_updated>2011-02-03T21:30:48 -500</ns:profile_updated><ns:snow_updated>2011-02-22T04:07:05 -500</ns:snow_updated></ns:return><ns:return type="ots.webservice.ski2009.ResortUpdateRecord"><ns:id>2495</ns:id><ns:latitude>47.557216</ns:latitude><ns:longitude>11.545563</ns:longitude><ns:name>Brauneck - Lenggries - Wegscheid</ns:name><ns:physical_address xmlns:xsi="http://www.w3.org/2001/XMLSchema-instance" xsi:nil="true" /><ns:physical_city>Lenggries</ns:physical_city><ns:profile_updated>2011-02-03T21:30:48 -500</ns:profile_updated><ns:snow_updated>2011-02-22T11:05:13 -500</ns:snow_updated></ns:return><ns:return type="ots.webservice.ski2009.ResortUpdateRecord"><ns:id>2110</ns:id><ns:latitude>47.696005</ns:latitude><ns:longitude>10.23985</ns:longitude><ns:name>Buchenberg</ns:name><ns:physical_address xmlns:xsi="http://www.w3.org/2001/XMLSchema-instance" xsi:nil="true" /><ns:physical_city>Buchenberg</ns:physical_city><ns:profile_updated>2011-02-03T21:30:48 -500</ns:profile_updated><ns:snow_updated>2011-02-22T11:05:17 -500</ns:snow_updated></ns:return><ns:return type="ots.webservice.ski2009.ResortUpdateRecord"><ns:id>2613</ns:id><ns:latitude>47.625656</ns:latitude><ns:longitude>10.851338</ns:longitude><ns:name>Buching</ns:name><ns:physical_address>Bergstraße 2a, Buching</ns:physical_address><ns:physical_city>Halblech</ns:physical_city><ns:profile_updated>2011-02-03T21:30:48 -500</ns:profile_updated><ns:snow_updated>2011-02-22T11:05:17 -500</ns:snow_updated></ns:return><ns:return type="ots.webservice.ski2009.ResortUpdateRecord"><ns:id>2726</ns:id><ns:latitude>48.834859</ns:latitude><ns:longitude>12.962042</ns:longitude><ns:name>Deggendorf</ns:name><ns:physical_address>Oberer Stadtplatz</ns:physical_address><ns:physical_city>Deggendorf</ns:physical_city><ns:profile_updated>2011-02-03T21:30:48 -500</ns:profile_updated><ns:snow_updated>2010-04-19T11:51:56 -500</ns:snow_updated></ns:return><ns:return type="ots.webservice.ski2009.ResortUpdateRecord"><ns:id>2630</ns:id><ns:latitude>47.719937</ns:latitude><ns:longitude>11.95065</ns:longitude><ns:name>Elbach am Raffelmoos</ns:name><ns:physical_address>Kirchplatz 10</ns:physical_address><ns:physical_city>Fischbachau</ns:physical_city><ns:profile_updated>2011-02-03T21:30:48 -500</ns:profile_updated><ns:snow_updated>2011-02-22T04:07:06 -500</ns:snow_updated></ns:return><ns:return type="ots.webservice.ski2009.ResortUpdateRecord"><ns:id>2176</ns:id><ns:latitude>49.838653</ns:latitude><ns:longitude>12.04771</ns:longitude><ns:name>Erbendorf</ns:name><ns:physical_address>Bräugasse 4</ns:physical_address><ns:physical_city>Erbendorf</ns:physical_city><ns:profile_updated>2011-02-03T21:30:48 -500</ns:profile_updated><ns:snow_updated>2010-04-19T11:51:52 -500</ns:snow_updated></ns:return><ns:return type="ots.webservice.ski2009.ResortUpdateRecord"><ns:id>1898</ns:id><ns:latitude>47.581236</ns:latitude><ns:longitude>11.206495</ns:longitude><ns:name>Eschenlohe</ns:name><ns:physical_address>Murnauer Straße 1</ns:physical_address><ns:physical_city>Eschenlohe</ns:physical_city><ns:profile_updated>2011-02-03T21:30:48 -500</ns:profile_updated><ns:snow_updated>2010-04-19T11:51:50 -500</ns:snow_updated></ns:return><ns:return type="ots.webservice.ski2009.ResortUpdateRecord"><ns:id>2402</ns:id><ns:latitude>47.856317</ns:latitude><ns:longitude>8.111061</ns:longitude><ns:name>Feldberg</ns:name><ns:physical_address>Kirchgasse 1</ns:physical_address><ns:physical_city>Feldberg</ns:physical_city><ns:profile_updated>2011-01-21T20:43:38 -500</ns:profile_updated><ns:snow_updated>2011-02-22T04:07:05 -500</ns:snow_updated></ns:return><ns:return type="ots.webservice.ski2009.ResortUpdateRecord"><ns:id>2061</ns:id><ns:latitude>47.460079</ns:latitude><ns:longitude>10.273203</ns:longitude><ns:name>Fischen im Allgäu</ns:name><ns:physical_address>Am Anger 15</ns:physical_address><ns:physical_city>Fischen im Allgäu</ns:physical_city><ns:profile_updated>2011-02-03T21:30:48 -500</ns:profile_updated><ns:snow_updated>2011-02-22T04:07:05 -500</ns:snow_updated></ns:return><ns:return type="ots.webservice.ski2009.ResortUpdateRecord"><ns:id>2557</ns:id><ns:latitude>48.461979</ns:latitude><ns:longitude>8.411663</ns:longitude><ns:name>Freudenstadt</ns:name><ns:physical_address>Bertoldstrasse</ns:physical_address><ns:physical_city>Freudenstadt</ns:physical_city><ns:profile_updated>2011-02-03T21:30:48 -500</ns:profile_updated><ns:snow_updated>2011-02-22T04:07:05 -500</ns:snow_updated></ns:return><ns:return type="ots.webservice.ski2009.ResortUpdateRecord"><ns:id>2252</ns:id><ns:latitude>47.8666667</ns:latitude><ns:longitude>12.1666667</ns:longitude><ns:name>Fussen</ns:name><ns:physical_address>Kaiser- Maximilian- Platz 1</ns:physical_address><ns:physical_city>Fussen</ns:physical_city><ns:profile_updated>2011-02-03T21:30:48 -500</ns:profile_updated><ns:snow_updated>2010-04-19T11:51:47 -500</ns:snow_updated></ns:return><ns:return type="ots.webservice.ski2009.ResortUpdateRecord"><ns:id>2748</ns:id><ns:latitude>47.482057</ns:latitude><ns:longitude>11.102979</ns:longitude><ns:name>Garmisch Classic</ns:name><ns:physical_address xmlns:xsi="http://www.w3.org/2001/XMLSchema-instance" xsi:nil="true" /><ns:physical_city>Garmisch - Partenkirchen</ns:physical_city><ns:profile_updated>2011-01-28T01:29:31 -500</ns:profile_updated><ns:snow_updated>2011-02-22T04:07:05 -500</ns:snow_updated></ns:return><ns:return type="ots.webservice.ski2009.ResortUpdateRecord"><ns:id>2627</ns:id><ns:latitude>50.754896</ns:latitude><ns:longitude>13.829165</ns:longitude><ns:name>Geising</ns:name><ns:physical_address>Lange Straße 14a</ns:physical_address><ns:physical_city>Geising</ns:physical_city><ns:profile_updated>2011-02-03T21:30:48 -500</ns:profile_updated><ns:snow_updated>2011-02-22T11:05:17 -500</ns:snow_updated></ns:return><ns:return type="ots.webservice.ski2009.ResortUpdateRecord"><ns:id>1880</ns:id><ns:latitude>48.917404</ns:latitude><ns:longitude>13.066719</ns:longitude><ns:name>Geisskopf - Bischofsmais</ns:name><ns:physical_address>Hauptstraße 34</ns:physical_address><ns:physical_city>Bischofsmais</ns:physical_city><ns:profile_updated>2011-01-21T20:43:35 -500</ns:profile_updated><ns:snow_updated>2011-02-22T04:07:04 -500</ns:snow_updated></ns:return><ns:return type="ots.webservice.ski2009.ResortUpdateRecord"><ns:id>2417</ns:id><ns:latitude>47.765782</ns:latitude><ns:longitude>11.749079</ns:longitude><ns:name>Gmund</ns:name><ns:physical_address>Kirchenweg 6, Postfach 86</ns:physical_address><ns:physical_city>Gmund</ns:physical_city><ns:profile_updated>2011-02-03T21:30:48 -500</ns:profile_updated><ns:snow_updated>2011-02-22T11:05:17 -500</ns:snow_updated></ns:return><ns:return type="ots.webservice.ski2009.ResortUpdateRecord"><ns:id>1800</ns:id><ns:latitude>48.857542</ns:latitude><ns:longitude>13.397405</ns:longitude><ns:name>Grafenau</ns:name><ns:physical_address>Rathausgasse 1</ns:physical_address><ns:physical_city>Grafenau</ns:physical_city><ns:profile_updated>2011-02-03T21:30:48 -500</ns:profile_updated><ns:snow_updated>2011-02-22T11:05:19 -500</ns:snow_updated></ns:return><ns:return type="ots.webservice.ski2009.ResortUpdateRecord"><ns:id>2583</ns:id><ns:latitude>48.8</ns:latitude><ns:longitude>13.65</ns:longitude><ns:name>Grainet</ns:name><ns:physical_address>Hauptstraße 21</ns:physical_address><ns:physical_city>Grainet</ns:physical_city><ns:profile_updated>2011-02-03T21:30:48 -500</ns:profile_updated><ns:snow_updated>2011-02-22T11:05:18 -500</ns:snow_updated></ns:return><ns:return type="ots.webservice.ski2009.ResortUpdateRecord"><ns:id>2296</ns:id><ns:latitude>47.44607</ns:latitude><ns:longitude>10.239325</ns:longitude><ns:name>Obermaiselstein</ns:name><ns:physical_address>Am Scheid 18</ns:physical_address><ns:physical_city>Obermaiselstein</ns:physical_city><ns:profile_updated>2011-02-03T21:30:48 -500</ns:profile_updated><ns:snow_updated>2011-01-11T10:29:09 -500</ns:snow_updated></ns:return><ns:return type="ots.webservice.ski2009.ResortUpdateRecord"><ns:id>1921</ns:id><ns:latitude>51.858886</ns:latitude><ns:longitude>10.3389</ns:longitude><ns:name>Hahnenklee</ns:name><ns:physical_address>Kurhausweg 7</ns:physical_address><ns:physical_city>Goslar</ns:physical_city><ns:profile_updated>2011-02-03T21:30:48 -500</ns:profile_updated><ns:snow_updated>2011-02-22T11:05:13 -500</ns:snow_updated></ns:return><ns:return type="ots.webservice.ski2009.ResortUpdateRecord"><ns:id>2334</ns:id><ns:latitude>47.625656</ns:latitude><ns:longitude>10.851338</ns:longitude><ns:name>Halblech</ns:name><ns:physical_address>Bergstraße 2a, Buching</ns:physical_address><ns:physical_city>Halblech </ns:physical_city><ns:profile_updated>2011-02-03T21:30:48 -500</ns:profile_updated><ns:snow_updated>2010-04-19T11:51:44 -500</ns:snow_updated></ns:return><ns:return type="ots.webservice.ski2009.ResortUpdateRecord"><ns:id>1711</ns:id><ns:latitude>48.66475</ns:latitude><ns:longitude>13.619868</ns:longitude><ns:name>Hauzenberg</ns:name><ns:physical_address>Schulstrasse 2</ns:physical_address><ns:physical_city>Hauzenberg</ns:physical_city><ns:profile_updated>2011-02-03T21:30:48 -500</ns:profile_updated><ns:snow_updated>2011-02-22T11:05:18 -500</ns:snow_updated></ns:return><ns:return type="ots.webservice.ski2009.ResortUpdateRecord"><ns:id>2299</ns:id><ns:latitude>50.027676</ns:latitude><ns:longitude>9.374981</ns:longitude><ns:name>Heigenbrucken</ns:name><ns:physical_address>Hauptstr. 7, Rathaus,</ns:physical_address><ns:physical_city>Heigenbrucken</ns:physical_city><ns:profile_updated>2011-02-03T21:30:48 -500</ns:profile_updated><ns:snow_updated>2011-02-22T11:05:13 -500</ns:snow_updated></ns:return><ns:return type="ots.webservice.ski2009.ResortUpdateRecord"><ns:id>1749</ns:id><ns:latitude>47.656926</ns:latitude><ns:longitude>11.36782</ns:longitude><ns:name>Herzogstand - Kochel - Walchensee</ns:name><ns:physical_address xmlns:xsi="http://www.w3.org/2001/XMLSchema-instance" xsi:nil="true" /><ns:physical_city>Walchensee</ns:physical_city><ns:profile_updated>2011-02-03T21:30:48 -500</ns:profile_updated><ns:snow_updated>2011-02-22T04:07:05 -500</ns:snow_updated></ns:return><ns:return type="ots.webservice.ski2009.ResortUpdateRecord"><ns:id>2497</ns:id><ns:latitude>47.574642</ns:latitude><ns:longitude>12.864847</ns:longitude><ns:name>Hochschwarzeck</ns:name><ns:physical_address>Im Tal 2</ns:physical_address><ns:physical_city>Ramsau bei Berchtesgaden</ns:physical_city><ns:profile_updated>2011-02-03T21:30:48 -500</ns:profile_updated><ns:snow_updated>2011-02-22T04:07:05 -500</ns:snow_updated></ns:return><ns:return type="ots.webservice.ski2009.ResortUpdateRecord"><ns:id>2615</ns:id><ns:latitude>49.203288</ns:latitude><ns:longitude>12.935791</ns:longitude><ns:name>Hohenwarth</ns:name><ns:physical_address>Kirchstrasse 7</ns:physical_address><ns:physical_city>Hohenwarth</ns:physical_city><ns:profile_updated>2011-02-03T21:30:48 -500</ns:profile_updated><ns:snow_updated>2010-04-19T11:51:41 -500</ns:snow_updated></ns:return><ns:return type="ots.webservice.ski2009.ResortUpdateRecord"><ns:id>2111</ns:id><ns:latitude>50.5070889</ns:latitude><ns:longitude>9.2063234</ns:longitude><ns:name>Hoherodskopf - Schotten - Breungeshain</ns:name><ns:physical_address xmlns:xsi="http://www.w3.org/2001/XMLSchema-instance" xsi:nil="true" /><ns:physical_city>Schotten</ns:physical_city><ns:profile_updated>2011-02-03T21:30:49 -500</ns:profile_updated><ns:snow_updated>2011-02-22T04:07:05 -500</ns:snow_updated></ns:return><ns:return type="ots.webservice.ski2009.ResortUpdateRecord"><ns:id>1978</ns:id><ns:latitude>47.665715</ns:latitude><ns:longitude>11.052105</ns:longitude><ns:name>Bad Kohlgrub</ns:name><ns:physical_address>Im Haus der Kurgäste</ns:physical_address><ns:physical_city>Bad Kohlgrub</ns:physical_city><ns:profile_updated>2011-02-03T21:30:48 -500</ns:profile_updated><ns:snow_updated>2011-02-22T04:07:04 -500</ns:snow_updated></ns:return><ns:return type="ots.webservice.ski2009.ResortUpdateRecord"><ns:id>1979</ns:id><ns:latitude>47.559982</ns:latitude><ns:longitude>10.217549</ns:longitude><ns:name>Immenstadt</ns:name><ns:physical_address>Marienplatz 3</ns:physical_address><ns:physical_city>Immenstadt</ns:physical_city><ns:profile_updated>2011-02-03T21:30:48 -500</ns:profile_updated><ns:snow_updated>2011-02-22T04:07:05 -500</ns:snow_updated></ns:return><ns:return type="ots.webservice.ski2009.ResortUpdateRecord"><ns:id>1758</ns:id><ns:latitude>47.774048</ns:latitude><ns:longitude>12.782999</ns:longitude><ns:name>Inzell</ns:name><ns:physical_address>Rathausplatz 5</ns:physical_address><ns:physical_city>Inzell</ns:physical_city><ns:profile_updated>2011-01-20T21:18:25 -500</ns:profile_updated><ns:snow_updated>2011-02-22T04:07:05 -500</ns:snow_updated></ns:return><ns:return type="ots.webservice.ski2009.ResortUpdateRecord"><ns:id>2412</ns:id><ns:latitude>47.7</ns:latitude><ns:longitude>10.0333333</ns:longitude><ns:name>Isny</ns:name><ns:physical_address>Kurhaus am Park</ns:physical_address><ns:physical_city>Isny</ns:physical_city><ns:profile_updated>2011-02-03T21:30:48 -500</ns:profile_updated><ns:snow_updated>2011-01-12T07:20:03 -500</ns:snow_updated></ns:return><ns:return type="ots.webservice.ski2009.ResortUpdateRecord"><ns:id>1906</ns:id><ns:latitude>50.389228</ns:latitude><ns:longitude>7.030085</ns:longitude><ns:name>Jammelshofen</ns:name><ns:physical_address xmlns:xsi="http://www.w3.org/2001/XMLSchema-instance" xsi:nil="true" /><ns:physical_city>Jammelshofen</ns:physical_city><ns:profile_updated>2011-02-03T21:30:48 -500</ns:profile_updated><ns:snow_updated>2010-04-19T11:51:10 -500</ns:snow_updated></ns:return><ns:return type="ots.webservice.ski2009.ResortUpdateRecord"><ns:id>2265</ns:id><ns:latitude>47.8666667</ns:latitude><ns:longitude>10.1833333</ns:longitude><ns:name>Schönau</ns:name><ns:physical_address>Höhbrandweg 1</ns:physical_address><ns:physical_city>Schönau am Königssee</ns:physical_city><ns:profile_updated>2011-01-21T20:43:35 -500</ns:profile_updated><ns:snow_updated>2011-02-22T04:07:04 -500</ns:snow_updated></ns:return><ns:return type="ots.webservice.ski2009.ResortUpdateRecord"><ns:id>2622</ns:id><ns:latitude>47.573428</ns:latitude><ns:longitude>10.447612</ns:longitude><ns:name>Jungholz</ns:name><ns:physical_address xmlns:xsi="http://www.w3.org/2001/XMLSchema-instance" xsi:nil="true" /><ns:physical_city>Jungholz</ns:physical_city><ns:profile_updated>2011-02-03T21:30:48 -500</ns:profile_updated><ns:snow_updated>2011-02-22T04:07:04 -500</ns:snow_updated></ns:return><ns:return type="ots.webservice.ski2009.ResortUpdateRecord"><ns:id>2374</ns:id><ns:latitude>47.726237</ns:latitude><ns:longitude>10.317629</ns:longitude><ns:name>Kempten</ns:name><ns:physical_address>Rathausplatz 24</ns:physical_address><ns:physical_city>Kempten</ns:physical_city><ns:profile_updated>2011-02-03T21:30:48 -500</ns:profile_updated><ns:snow_updated>2010-04-19T11:50:20 -500</ns:snow_updated></ns:return><ns:return type="ots.webservice.ski2009.ResortUpdateRecord"><ns:id>1701</ns:id><ns:latitude>47.645284</ns:latitude><ns:longitude>11.745229</ns:longitude><ns:name>Kreuth</ns:name><ns:physical_address>Nördliche Hauptstraße 3</ns:physical_address><ns:physical_city>Kreuth</ns:physical_city><ns:profile_updated>2011-02-03T21:30:48 -500</ns:profile_updated><ns:snow_updated>2011-02-22T04:07:06 -500</ns:snow_updated></ns:return><ns:return type="ots.webservice.ski2009.ResortUpdateRecord"><ns:id>1918</ns:id><ns:latitude>50.402357</ns:latitude><ns:longitude>10.007395</ns:longitude><ns:name>Kreuzberg</ns:name><ns:physical_address>Kirchplatz 7</ns:physical_address><ns:physical_city>Bischofsheim an der Rhön</ns:physical_city><ns:profile_updated>2011-02-03T21:30:49 -500</ns:profile_updated><ns:snow_updated>2011-02-22T11:05:19 -500</ns:snow_updated></ns:return><ns:return type="ots.webservice.ski2009.ResortUpdateRecord"><ns:id>2681</ns:id><ns:latitude>49.013566</ns:latitude><ns:longitude>13.147773</ns:longitude><ns:name>Langdorf</ns:name><ns:physical_address>Hauptstrasse 8</ns:physical_address><ns:physical_city>Langdorf</ns:physical_city><ns:profile_updated>2011-02-03T21:30:48 -500</ns:profile_updated><ns:snow_updated>2010-04-19T11:50:26 -500</ns:snow_updated></ns:return><ns:return type="ots.webservice.ski2009.ResortUpdateRecord"><ns:id>2023</ns:id><ns:latitude>47.7015828</ns:latitude><ns:longitude>10.7949982</ns:longitude><ns:name>Lechbruck am See</ns:name><ns:physical_address>Rathaus</ns:physical_address><ns:physical_city>Lechbruck am See</ns:physical_city><ns:profile_updated>2011-02-03T21:30:48 -500</ns:profile_updated><ns:snow_updated>2010-04-19T11:49:51 -500</ns:snow_updated></ns:return><ns:return type="ots.webservice.ski2009.ResortUpdateRecord"><ns:id>1833</ns:id><ns:latitude>47.607356</ns:latitude><ns:longitude>9.893167</ns:longitude><ns:name>Lindenberg</ns:name><ns:physical_address>Stadtplatz 1</ns:physical_address><ns:physical_city>Lindenberg</ns:physical_city><ns:profile_updated>2011-02-03T21:30:48 -500</ns:profile_updated><ns:snow_updated>2010-04-19T11:49:24 -500</ns:snow_updated></ns:return><ns:return type="ots.webservice.ski2009.ResortUpdateRecord"><ns:id>2048</ns:id><ns:latitude>50.485321</ns:latitude><ns:longitude>11.388638</ns:longitude><ns:name>Ludwigsstadt</ns:name><ns:physical_address>Lauensteiner Slt. 1</ns:physical_address><ns:physical_city>Ludwigsstadt</ns:physical_city><ns:profile_updated>2011-02-03T21:30:49 -500</ns:profile_updated><ns:snow_updated>2011-02-22T11:05:13 -500</ns:snow_updated></ns:return><ns:return type="ots.webservice.ski2009.ResortUpdateRecord"><ns:id>2147</ns:id><ns:latitude>47.653097</ns:latitude><ns:longitude>10.052464</ns:longitude><ns:name>Maierhofen</ns:name><ns:physical_address xmlns:xsi="http://www.w3.org/2001/XMLSchema-instance" xsi:nil="true" /><ns:physical_city>Maierhofen</ns:physical_city><ns:profile_updated>2011-02-03T21:30:48 -500</ns:profile_updated><ns:snow_updated>2011-02-22T11:05:18 -500</ns:snow_updated></ns:return><ns:return type="ots.webservice.ski2009.ResortUpdateRecord"><ns:id>2789</ns:id><ns:latitude>47.603733</ns:latitude><ns:longitude>10.118193</ns:longitude><ns:name>Missen </ns:name><ns:physical_address>Haupstrasse 45</ns:physical_address><ns:physical_city>Missen</ns:physical_city><ns:profile_updated>2011-02-03T21:30:48 -500</ns:profile_updated><ns:snow_updated>2011-02-22T04:07:06 -500</ns:snow_updated></ns:return><ns:return type="ots.webservice.ski2009.ResortUpdateRecord"><ns:id>2308</ns:id><ns:latitude>47.643367</ns:latitude><ns:longitude>10.454728</ns:longitude><ns:name>Mittelberg</ns:name><ns:physical_address>Haupstrasse 28</ns:physical_address><ns:physical_city>Oy Mittelberg</ns:physical_city><ns:profile_updated>2011-02-03T21:30:48 -500</ns:profile_updated><ns:snow_updated>2011-02-22T04:07:06 -500</ns:snow_updated></ns:return><ns:return type="ots.webservice.ski2009.ResortUpdateRecord"><ns:id>2016</ns:id><ns:latitude>47.443549</ns:latitude><ns:longitude>11.26383</ns:longitude><ns:name>Mittenwald</ns:name><ns:physical_address>Dammkarstraße 3</ns:physical_address><ns:physical_city>Mittenwald</ns:physical_city><ns:profile_updated>2011-02-03T21:30:48 -500</ns:profile_updated><ns:snow_updated>2011-02-22T04:07:05 -500</ns:snow_updated></ns:return><ns:return type="ots.webservice.ski2009.ResortUpdateRecord"><ns:id>2468</ns:id><ns:latitude>48.871062</ns:latitude><ns:longitude>13.677806</ns:longitude><ns:name>Mitterdorf - Phillippsreut - Mitterfirmiansreut</ns:name><ns:physical_address>Hauptstr. 17</ns:physical_address><ns:physical_city>Phillippsrreut / Mitterfirmian</ns:physical_city><ns:profile_updated>2011-01-21T20:43:36 -500</ns:profile_updated><ns:snow_updated>2011-02-22T04:07:04 -500</ns:snow_updated></ns:return><ns:return type="ots.webservice.ski2009.ResortUpdateRecord"><ns:id>2651</ns:id><ns:latitude>47.85882</ns:latitude><ns:longitude>7.918247</ns:longitude><ns:name>Müggenbrünn</ns:name><ns:physical_address>Kurhaus</ns:physical_address><ns:physical_city>Todtnau</ns:physical_city><ns:profile_updated>2011-02-03T21:30:49 -500</ns:profile_updated><ns:snow_updated>2011-02-22T11:05:18 -500</ns:snow_updated></ns:return><ns:return type="ots.webservice.ski2009.ResortUpdateRecord"><ns:id>1731</ns:id><ns:latitude>47.863755</ns:latitude><ns:longitude>7.819956</ns:longitude><ns:name>Münstertal</ns:name><ns:physical_address>Wasen 47</ns:physical_address><ns:physical_city>Münstertal</ns:physical_city><ns:profile_updated>2011-02-03T21:30:48 -500</ns:profile_updated><ns:snow_updated>2010-04-19T11:49:28 -500</ns:snow_updated></ns:return><ns:return type="ots.webservice.ski2009.ResortUpdateRecord"><ns:id>2686</ns:id><ns:latitude>47.62386</ns:latitude><ns:longitude>10.499509</ns:longitude><ns:name>Nesselwang</ns:name><ns:physical_address>Hauptstraße 18</ns:physical_address><ns:physical_city>Nesselwang</ns:physical_city><ns:profile_updated>2011-01-21T20:43:36 -500</ns:profile_updated><ns:snow_updated>2011-02-22T04:07:05 -500</ns:snow_updated></ns:return><ns:return type="ots.webservice.ski2009.ResortUpdateRecord"><ns:id>1855</ns:id><ns:latitude>50.509205</ns:latitude><ns:longitude>11.139102</ns:longitude><ns:name>Neuhaus am Rennweg</ns:name><ns:physical_address>Marktstraße 3 </ns:physical_address><ns:physical_city>Neuhaus am Rennweg</ns:physical_city><ns:profile_updated>2011-02-03T21:30:48 -500</ns:profile_updated><ns:snow_updated>2011-02-22T11:05:18 -500</ns:snow_updated></ns:return><ns:return type="ots.webservice.ski2009.ResortUpdateRecord"><ns:id>2486</ns:id><ns:latitude>49.25367</ns:latitude><ns:longitude>13.001429</ns:longitude><ns:name>Neukirchen beim Heiligen Blut</ns:name><ns:physical_address>Marktplatz 10</ns:physical_address><ns:physical_city>Neukirchen beim Hl. Blut</ns:physical_city><ns:profile_updated>2011-02-03T21:30:48 -500</ns:profile_updated><ns:snow_updated>2011-02-22T04:07:06 -500</ns:snow_updated></ns:return><ns:return type="ots.webservice.ski2009.ResortUpdateRecord"><ns:id>1857</ns:id><ns:latitude>48.747935</ns:latitude><ns:longitude>13.747754</ns:longitude><ns:name>Neureichenau</ns:name><ns:physical_address>Dreisesselstr. 8</ns:physical_address><ns:physical_city>Neureichenau</ns:physical_city><ns:profile_updated>2011-02-03T21:30:48 -500</ns:profile_updated><ns:snow_updated>2011-02-22T11:05:18 -500</ns:snow_updated></ns:return><ns:return type="ots.webservice.ski2009.ResortUpdateRecord"><ns:id>2099</ns:id><ns:latitude>48.910076</ns:latitude><ns:longitude>13.480298</ns:longitude><ns:name>Neuschönau</ns:name><ns:physical_address>Kaiserstraße 13</ns:physical_address><ns:physical_city>Neuschonau</ns:physical_city><ns:profile_updated>2011-02-03T21:30:48 -500</ns:profile_updated><ns:snow_updated>2011-02-22T04:07:04 -500</ns:snow_updated></ns:return><ns:return type="ots.webservice.ski2009.ResortUpdateRecord"><ns:id>2186</ns:id><ns:latitude>47.5958</ns:latitude><ns:longitude>11.057862</ns:longitude><ns:name>Oberammergau</ns:name><ns:physical_address>Eugen-Papst-Straße 9a </ns:physical_address><ns:physical_city>Oberammergau</ns:physical_city><ns:profile_updated>2010-12-29T11:05:14 -500</ns:profile_updated><ns:snow_updated>2011-02-22T11:05:20 -500</ns:snow_updated></ns:return><ns:return type="ots.webservice.ski2009.ResortUpdateRecord"><ns:id>2747</ns:id><ns:latitude>47.666132</ns:latitude><ns:longitude>12.126238</ns:longitude><ns:name>Oberaudorf</ns:name><ns:physical_address>Kufsteiner Straße 6</ns:physical_address><ns:physical_city>Oberaudorf</ns:physical_city><ns:profile_updated>2011-01-21T09:10:04 -500</ns:profile_updated><ns:snow_updated>2011-02-22T04:07:05 -500</ns:snow_updated></ns:return><ns:return type="ots.webservice.ski2009.ResortUpdateRecord"><ns:id>2112</ns:id><ns:latitude>50.706866</ns:latitude><ns:longitude>10.724801</ns:longitude><ns:name>Oberhof</ns:name><ns:physical_address>Crawinkler Straße 2</ns:physical_address><ns:physical_city>Oberhof</ns:physical_city><ns:profile_updated>2011-02-03T21:30:48 -500</ns:profile_updated><ns:snow_updated>2011-02-22T11:05:16 -500</ns:snow_updated></ns:return><ns:return type="ots.webservice.ski2009.ResortUpdateRecord"><ns:id>2285</ns:id><ns:latitude>47.470489</ns:latitude><ns:longitude>10.385673</ns:longitude><ns:name>Oberjoch</ns:name><ns:physical_address>Marktstraße 9</ns:physical_address><ns:physical_city>Bad Hindelang</ns:physical_city><ns:profile_updated>2011-02-03T21:30:48 -500</ns:profile_updated><ns:snow_updated>2011-02-22T11:05:13 -500</ns:snow_updated></ns:return><ns:return type="ots.webservice.ski2009.ResortUpdateRecord"><ns:id>1893</ns:id><ns:latitude>47.563083</ns:latitude><ns:longitude>9.942984</ns:longitude><ns:name>Oberreute</ns:name><ns:physical_address>Hauptstraße 33</ns:physical_address><ns:physical_city>Obereutte</ns:physical_city><ns:profile_updated>2011-02-03T21:30:49 -500</ns:profile_updated><ns:snow_updated>2010-04-19T11:49:55 -500</ns:snow_updated></ns:return><ns:return type="ots.webservice.ski2009.ResortUpdateRecord"><ns:id>2703</ns:id><ns:latitude>47.631359</ns:latitude><ns:longitude>13.003598</ns:longitude><ns:name>Obersalzberg - Berchtesgadener Land</ns:name><ns:physical_address>Königsseer Straße 2, Postfach 2240</ns:physical_address><ns:physical_city>Berchtesgaden</ns:physical_city><ns:profile_updated>2011-01-21T20:43:38 -500</ns:profile_updated><ns:snow_updated>2011-02-22T04:07:05 -500</ns:snow_updated></ns:return><ns:return type="ots.webservice.ski2009.ResortUpdateRecord"><ns:id>2400</ns:id><ns:latitude>47.53963</ns:latitude><ns:longitude>10.057468</ns:longitude><ns:name>Oberstaufen</ns:name><ns:physical_address>Postfach 80, Hugo-von-Königsegg-Straße 8</ns:physical_address><ns:physical_city>Oberstaufen</ns:physical_city><ns:profile_updated>2011-01-21T20:43:38 -500</ns:profile_updated><ns:snow_updated>2011-02-22T04:07:05 -500</ns:snow_updated></ns:return><ns:return type="ots.webservice.ski2009.ResortUpdateRecord"><ns:id>2602</ns:id><ns:latitude>47.407759</ns:latitude><ns:longitude>10.278045</ns:longitude><ns:name>Oberstdorf</ns:name><ns:physical_address>Marktplatz 7</ns:physical_address><ns:physical_city>Oberstdorf</ns:physical_city><ns:profile_updated>2011-01-20T21:18:23 -500</ns:profile_updated><ns:snow_updated>2011-02-22T04:07:04 -500</ns:snow_updated></ns:return><ns:return type="ots.webservice.ski2009.ResortUpdateRecord"><ns:id>2304</ns:id><ns:latitude>50.4166313</ns:latitude><ns:longitude>12.9697448</ns:longitude><ns:name>Oberwiesenthal</ns:name><ns:physical_address>Postfach 50</ns:physical_address><ns:physical_city>Kurort Oberwiesenthal</ns:physical_city><ns:profile_updated>2011-01-20T21:18:23 -500</ns:profile_updated><ns:snow_updated>2011-02-22T04:07:05 -500</ns:snow_updated></ns:return><ns:return type="ots.webservice.ski2009.ResortUpdateRecord"><ns:id>2723</ns:id><ns:latitude>50.000363</ns:latitude><ns:longitude>11.851537</ns:longitude><ns:name>Ochsenkopf</ns:name><ns:physical_address>Gablonzer Str. 11</ns:physical_address><ns:physical_city>Bischofsgrün</ns:physical_city><ns:profile_updated>2011-01-21T20:43:39 -500</ns:profile_updated><ns:snow_updated>2011-02-22T04:07:06 -500</ns:snow_updated></ns:return><ns:return type="ots.webservice.ski2009.ResortUpdateRecord"><ns:id>1697</ns:id><ns:latitude>47.495737</ns:latitude><ns:longitude>10.238323</ns:longitude><ns:name>Ofterschwang</ns:name><ns:physical_address>Sigishofen 31</ns:physical_address><ns:physical_city>Ofterschwang</ns:physical_city><ns:profile_updated>2011-01-21T20:43:38 -500</ns:profile_updated><ns:snow_updated>2011-02-22T04:07:06 -500</ns:snow_updated></ns:return><ns:return type="ots.webservice.ski2009.ResortUpdateRecord"><ns:id>1848</ns:id><ns:latitude>47.580544</ns:latitude><ns:longitude>10.54576</ns:longitude><ns:name>Pfronten</ns:name><ns:physical_address>Vilstalstrasse 2</ns:physical_address><ns:physical_city>Pfronten - Ried</ns:physical_city><ns:profile_updated>2011-02-03T21:30:48 -500</ns:profile_updated><ns:snow_updated>2011-02-22T04:07:04 -500</ns:snow_updated></ns:return><ns:return type="ots.webservice.ski2009.ResortUpdateRecord"><ns:id>2683</ns:id><ns:latitude>50.483333</ns:latitude><ns:longitude>9.866667</ns:longitude><ns:name>Poppenhausen</ns:name><ns:physical_address>im Rathaus, Von - Steinruck Platz 1</ns:physical_address><ns:physical_city>Poppenhausen ( Wasserkoppe )</ns:physical_city><ns:profile_updated>2007-09-28T03:25:09 -500</ns:profile_updated><ns:snow_updated>2010-04-19T11:50:28 -500</ns:snow_updated></ns:return><ns:return type="ots.webservice.ski2009.ResortUpdateRecord"><ns:id>1703</ns:id><ns:latitude>47.677305</ns:latitude><ns:longitude>12.47001</ns:longitude><ns:name>Reit im Winkl</ns:name><ns:physical_address>Dorfstr. 38</ns:physical_address><ns:physical_city>Reit Im Winkl</ns:physical_city><ns:profile_updated>2011-01-21T20:43:38 -500</ns:profile_updated><ns:snow_updated>2011-02-22T04:07:05 -500</ns:snow_updated></ns:return><ns:return type="ots.webservice.ski2009.ResortUpdateRecord"><ns:id>2130</ns:id><ns:latitude>47.573491</ns:latitude><ns:longitude>10.289036</ns:longitude><ns:name>Rettenberg</ns:name><ns:physical_address>Burgberger Strasse 15 </ns:physical_address><ns:physical_city>Rettenberg</ns:physical_city><ns:profile_updated>2011-02-03T21:30:48 -500</ns:profile_updated><ns:snow_updated>2011-02-22T11:05:13 -500</ns:snow_updated></ns:return><ns:return type="ots.webservice.ski2009.ResortUpdateRecord"><ns:id>2520</ns:id><ns:latitude>47.680728</ns:latitude><ns:longitude>11.779542</ns:longitude><ns:name>Rottach - Egern</ns:name><ns:physical_address>Rathaus  Nördliche Haupstraße 9, Postfach 100</ns:physical_address><ns:physical_city>Rottach - Egern</ns:physical_city><ns:profile_updated>2011-02-03T21:30:48 -500</ns:profile_updated><ns:snow_updated>2011-02-22T11:05:15 -500</ns:snow_updated></ns:return><ns:return type="ots.webservice.ski2009.ResortUpdateRecord"><ns:id>2056</ns:id><ns:latitude>47.7626101</ns:latitude><ns:longitude>12.646131</ns:longitude><ns:name>Ruhpolding</ns:name><ns:physical_address>Postfach 1460</ns:physical_address><ns:physical_city>Ruhpolding</ns:physical_city><ns:profile_updated>2011-02-03T21:30:48 -500</ns:profile_updated><ns:snow_updated>2011-02-22T04:07:05 -500</ns:snow_updated></ns:return><ns:return type="ots.webservice.ski2009.ResortUpdateRecord"><ns:id>2558</ns:id><ns:latitude>51.715193</ns:latitude><ns:longitude>10.522224</ns:longitude><ns:name>Sankt Andreasberg</ns:name><ns:physical_address>Am Kurpark 9</ns:physical_address><ns:physical_city>Sankt Andreasberg</ns:physical_city><ns:profile_updated>2011-02-03T21:30:48 -500</ns:profile_updated><ns:snow_updated>2011-02-22T04:07:05 -500</ns:snow_updated></ns:return><ns:return type="ots.webservice.ski2009.ResortUpdateRecord"><ns:id>2091</ns:id><ns:latitude>49.0026371</ns:latitude><ns:longitude>12.8199782</ns:longitude><ns:name>Sankt Englmar</ns:name><ns:physical_address xmlns:xsi="http://www.w3.org/2001/XMLSchema-instance" xsi:nil="true" /><ns:physical_city>Sankt Englmar</ns:physical_city><ns:profile_updated>2011-02-03T21:30:48 -500</ns:profile_updated><ns:snow_updated>2011-02-22T04:07:05 -500</ns:snow_updated></ns:return><ns:return type="ots.webservice.ski2009.ResortUpdateRecord"><ns:id>1788</ns:id><ns:latitude>48.640722</ns:latitude><ns:longitude>8.094284</ns:longitude><ns:name>Sasbachwalden</ns:name><ns:physical_address>Talstraße 51</ns:physical_address><ns:physical_city>Buhl - Unterstmatt</ns:physical_city><ns:profile_updated>2011-02-03T21:30:48 -500</ns:profile_updated><ns:snow_updated>2010-04-19T11:50:30 -500</ns:snow_updated></ns:return><ns:return type="ots.webservice.ski2009.ResortUpdateRecord"><ns:id>2144</ns:id><ns:latitude>47.572529</ns:latitude><ns:longitude>9.824892</ns:longitude><ns:name>Scheidegg - Möggers</ns:name><ns:physical_address>Rathausplatz 4</ns:physical_address><ns:physical_city>Scheidegg im Allgäu</ns:physical_city><ns:profile_updated>2011-02-03T21:30:49 -500</ns:profile_updated><ns:snow_updated>2011-02-22T04:07:05 -500</ns:snow_updated></ns:return><ns:return type="ots.webservice.ski2009.ResortUpdateRecord"><ns:id>1948</ns:id><ns:latitude>47.7166667</ns:latitude><ns:longitude>12.4</ns:longitude><ns:name>Schleching / Geigelstein</ns:name><ns:physical_address>Haus des Gastes</ns:physical_address><ns:physical_city>Schleching</ns:physical_city><ns:profile_updated>2011-02-03T21:30:49 -500</ns:profile_updated><ns:snow_updated>2011-02-22T11:05:17 -500</ns:snow_updated></ns:return><ns:return type="ots.webservice.ski2009.ResortUpdateRecord"><ns:id>2237</ns:id><ns:latitude>47.737728</ns:latitude><ns:longitude>11.854004</ns:longitude><ns:name>Schliersee - Spitzingsee</ns:name><ns:physical_address>Bahnhofstraße 11a</ns:physical_address><ns:physical_city>Schliersee</ns:physical_city><ns:profile_updated>2011-02-03T21:30:49 -500</ns:profile_updated><ns:snow_updated>2011-02-22T04:07:05 -500</ns:snow_updated></ns:return><ns:return type="ots.webservice.ski2009.ResortUpdateRecord"><ns:id>2070</ns:id><ns:latitude>47.819061</ns:latitude><ns:longitude>8.181185</ns:longitude><ns:name>Schluchsee</ns:name><ns:physical_address>Fischbacher Str. 7 </ns:physical_address><ns:physical_city>Schluchsee</ns:physical_city><ns:profile_updated>2011-02-11T04:07:04 -500</ns:profile_updated><ns:snow_updated>2011-02-22T04:07:05 -500</ns:snow_updated></ns:return><ns:return type="ots.webservice.ski2009.ResortUpdateRecord"><ns:id>2595</ns:id><ns:latitude>50.20241</ns:latitude><ns:longitude>8.849076</ns:longitude><ns:name>Schöneck</ns:name><ns:physical_address>Herrnhofstraße 8 </ns:physical_address><ns:physical_city>Schöneck</ns:physical_city><ns:profile_updated>2011-02-03T21:30:49 -500</ns:profile_updated><ns:snow_updated>2011-02-22T11:05:19 -500</ns:snow_updated></ns:return><ns:return type="ots.webservice.ski2009.ResortUpdateRecord"><ns:id>1704</ns:id><ns:latitude>47.57181</ns:latitude><ns:longitude>10.752954</ns:longitude><ns:name>Schwangau - Tegelberg</ns:name><ns:physical_address xmlns:xsi="http://www.w3.org/2001/XMLSchema-instance" xsi:nil="true" /><ns:physical_city>Schwangau</ns:physical_city><ns:profile_updated>2011-02-03T21:30:49 -500</ns:profile_updated><ns:snow_updated>2011-02-22T04:07:04 -500</ns:snow_updated></ns:return><ns:return type="ots.webservice.ski2009.ResortUpdateRecord"><ns:id>2300</ns:id><ns:latitude>50.278201</ns:latitude><ns:longitude>11.578037</ns:longitude><ns:name>Schwarzenbach am Wald</ns:name><ns:physical_address>Zeppelinstraße 4</ns:physical_address><ns:physical_city>Schwarzenbach am Wald</ns:physical_city><ns:profile_updated>2011-02-03T21:30:49 -500</ns:profile_updated><ns:snow_updated>2011-02-22T04:07:05 -500</ns:snow_updated></ns:return><ns:return type="ots.webservice.ski2009.ResortUpdateRecord"><ns:id>1824</ns:id><ns:latitude>47.514172</ns:latitude><ns:longitude>10.281676</ns:longitude><ns:name>Sonthofen - Schwäbeleholz</ns:name><ns:physical_address>Rathausplatz 1</ns:physical_address><ns:physical_city>Sonthofen</ns:physical_city><ns:profile_updated>2011-02-03T21:30:49 -500</ns:profile_updated><ns:snow_updated>2011-02-22T04:07:05 -500</ns:snow_updated></ns:return><ns:return type="ots.webservice.ski2009.ResortUpdateRecord"><ns:id>2510</ns:id><ns:latitude>47.758951</ns:latitude><ns:longitude>8.127836</ns:longitude><ns:name>St. Blasien</ns:name><ns:physical_address>Am Kurgarten 1-3</ns:physical_address><ns:physical_city>St. Blasien</ns:physical_city><ns:profile_updated>2011-02-03T21:30:49 -500</ns:profile_updated><ns:snow_updated>2011-02-22T11:05:18 -500</ns:snow_updated></ns:return><ns:return type="ots.webservice.ski2009.ResortUpdateRecord"><ns:id>2205</ns:id><ns:latitude>47.673506</ns:latitude><ns:longitude>12.013987</ns:longitude><ns:name>Sudelfeld</ns:name><ns:physical_address>Kirchplatz 2</ns:physical_address><ns:physical_city>Bayrischzell</ns:physical_city><ns:profile_updated>2011-02-03T21:30:48 -500</ns:profile_updated><ns:snow_updated>2011-02-22T04:07:04 -500</ns:snow_updated></ns:return><ns:return type="ots.webservice.ski2009.ResortUpdateRecord"><ns:id>1821</ns:id><ns:latitude>47.823206</ns:latitude><ns:longitude>12.646676</ns:longitude><ns:name>Siegsdorf</ns:name><ns:physical_address>Rathausplatz 4</ns:physical_address><ns:physical_city>Siegsdorf</ns:physical_city><ns:profile_updated>2011-02-03T21:30:49 -500</ns:profile_updated><ns:snow_updated>2011-02-22T11:05:16 -500</ns:snow_updated></ns:return><ns:return type="ots.webservice.ski2009.ResortUpdateRecord"><ns:id>2572</ns:id><ns:latitude>47.719431</ns:latitude><ns:longitude>11.762385</ns:longitude><ns:name>Tegernsee</ns:name><ns:physical_address xmlns:xsi="http://www.w3.org/2001/XMLSchema-instance" xsi:nil="true" /><ns:physical_city>Tegernsee</ns:physical_city><ns:profile_updated>2011-02-03T21:30:49 -500</ns:profile_updated><ns:snow_updated>2011-02-22T11:05:13 -500</ns:snow_updated></ns:return><ns:return type="ots.webservice.ski2009.ResortUpdateRecord"><ns:id>2095</ns:id><ns:latitude>50.240065</ns:latitude><ns:longitude>11.323382</ns:longitude><ns:name>Tettau</ns:name><ns:physical_address>Adolf Koping Straße 1</ns:physical_address><ns:physical_city>Kronach</ns:physical_city><ns:profile_updated>2011-02-03T21:30:49 -500</ns:profile_updated><ns:snow_updated>2011-02-22T04:07:06 -500</ns:snow_updated></ns:return><ns:return type="ots.webservice.ski2009.ResortUpdateRecord"><ns:id>2715</ns:id><ns:latitude>47.732023</ns:latitude><ns:longitude>8.002239</ns:longitude><ns:name>Todtmoos</ns:name><ns:physical_address>Wehratalstr.19</ns:physical_address><ns:physical_city>Todtmoos</ns:physical_city><ns:profile_updated>2011-02-03T21:30:49 -500</ns:profile_updated><ns:snow_updated>2011-02-22T11:05:13 -500</ns:snow_updated></ns:return><ns:return type="ots.webservice.ski2009.ResortUpdateRecord"><ns:id>2616</ns:id><ns:latitude>47.722934</ns:latitude><ns:longitude>12.613479</ns:longitude><ns:name>Unternberg</ns:name><ns:physical_address xmlns:xsi="http://www.w3.org/2001/XMLSchema-instance" xsi:nil="true" /><ns:physical_city>Ruhpolding</ns:physical_city><ns:profile_updated>2011-02-03T21:30:48 -500</ns:profile_updated><ns:snow_updated>2011-02-22T11:05:13 -500</ns:snow_updated></ns:return><ns:return type="ots.webservice.ski2009.ResortUpdateRecord"><ns:id>2410</ns:id><ns:latitude>48.730063</ns:latitude><ns:longitude>13.615708</ns:longitude><ns:name>Waldkirchen</ns:name><ns:physical_address>Gaste- u. Burgerhaus</ns:physical_address><ns:physical_city>Waldkirchen</ns:physical_city><ns:profile_updated>2011-02-03T21:30:49 -500</ns:profile_updated><ns:snow_updated>2011-02-22T04:07:04 -500</ns:snow_updated></ns:return><ns:return type="ots.webservice.ski2009.ResortUpdateRecord"><ns:id>2316</ns:id><ns:latitude>49.991654</ns:latitude><ns:longitude>11.776918</ns:longitude><ns:name>Warmensteinach</ns:name><ns:physical_address>Freizeithaus, Oberwarmensteinacher Straße
</ns:physical_address><ns:physical_city>Warmensteinach mit Flechl - Ob</ns:physical_city><ns:profile_updated>2011-02-03T21:30:49 -500</ns:profile_updated><ns:snow_updated>2011-02-22T11:05:18 -500</ns:snow_updated></ns:return><ns:return type="ots.webservice.ski2009.ResortUpdateRecord"><ns:id>2680</ns:id><ns:latitude>47.58188</ns:latitude><ns:longitude>9.916486</ns:longitude><ns:name>Weiler - Simmerberg - Ellhofen</ns:name><ns:physical_address xmlns:xsi="http://www.w3.org/2001/XMLSchema-instance" xsi:nil="true" /><ns:physical_city>Weiler - Simmerberg - Ellhofen</ns:physical_city><ns:profile_updated>2011-02-03T21:30:49 -500</ns:profile_updated><ns:snow_updated>2010-04-19T11:50:58 -500</ns:snow_updated></ns:return><ns:return type="ots.webservice.ski2009.ResortUpdateRecord"><ns:id>2012</ns:id><ns:latitude>51.838276</ns:latitude><ns:longitude>10.790782</ns:longitude><ns:name>Werningerode</ns:name><ns:physical_address>Marktstraße 10</ns:physical_address><ns:physical_city>Wernigerode</ns:physical_city><ns:profile_updated>2011-02-03T21:30:49 -500</ns:profile_updated><ns:snow_updated>2010-04-19T11:52:00 -500</ns:snow_updated></ns:return><ns:return type="ots.webservice.ski2009.ResortUpdateRecord"><ns:id>2637</ns:id><ns:latitude>47.577207</ns:latitude><ns:longitude>10.41233</ns:longitude><ns:name>Wertach</ns:name><ns:physical_address>Rathausstraße 3</ns:physical_address><ns:physical_city>Wertach</ns:physical_city><ns:profile_updated>2011-02-03T21:30:49 -500</ns:profile_updated><ns:snow_updated>2011-01-13T13:42:08 -500</ns:snow_updated></ns:return><ns:return type="ots.webservice.ski2009.ResortUpdateRecord"><ns:id>1866</ns:id><ns:latitude>47.841738</ns:latitude><ns:longitude>7.882344</ns:longitude><ns:name>Wieden</ns:name><ns:physical_address xmlns:xsi="http://www.w3.org/2001/XMLSchema-instance" xsi:nil="true" /><ns:physical_city>Wieden</ns:physical_city><ns:profile_updated>2011-02-03T21:30:49 -500</ns:profile_updated><ns:snow_updated>2010-04-19T11:47:55 -500</ns:snow_updated></ns:return><ns:return type="ots.webservice.ski2009.ResortUpdateRecord"><ns:id>2507</ns:id><ns:latitude>48.5616675</ns:latitude><ns:longitude>9.6252542</ns:longitude><ns:name>Wiesensteig</ns:name><ns:physical_address>Hauptstraße 25 </ns:physical_address><ns:physical_city>Wiesensteig</ns:physical_city><ns:profile_updated>2011-02-03T21:30:49 -500</ns:profile_updated><ns:snow_updated>2010-04-19T11:47:49 -500</ns:snow_updated></ns:return><ns:return type="ots.webservice.ski2009.ResortUpdateRecord"><ns:id>1730</ns:id><ns:latitude>51.291247</ns:latitude><ns:longitude>8.603574</ns:longitude><ns:name>Willingen</ns:name><ns:physical_address>Waldecker Straße 12</ns:physical_address><ns:physical_city>Willingen</ns:physical_city><ns:profile_updated>2011-01-21T20:43:39 -500</ns:profile_updated><ns:snow_updated>2011-02-22T04:07:06 -500</ns:snow_updated></ns:return><ns:return type="ots.webservice.ski2009.ResortUpdateRecord"><ns:id>2369</ns:id><ns:latitude>51.227439</ns:latitude><ns:longitude>8.500062</ns:longitude><ns:name>Winterberg</ns:name><ns:physical_address>Hauptstraße 1</ns:physical_address><ns:physical_city>Winterberg</ns:physical_city><ns:profile_updated>2011-02-03T21:30:49 -500</ns:profile_updated><ns:snow_updated>2011-02-22T04:07:05 -500</ns:snow_updated></ns:return><ns:return type="ots.webservice.ski2009.ResortUpdateRecord"><ns:id>1849</ns:id><ns:latitude>51.727887</ns:latitude><ns:longitude>10.610555</ns:longitude><ns:name>Braunlage</ns:name><ns:physical_address>Elbingeröder Straße17</ns:physical_address><ns:physical_city>Braunlage</ns:physical_city><ns:profile_updated>2011-02-03T21:30:48 -500</ns:profile_updated><ns:snow_updated>2011-02-22T04:07:05 -500</ns:snow_updated></ns:return><ns:return type="ots.webservice.ski2009.ResortUpdateRecord"><ns:id>2713</ns:id><ns:latitude>49.013761</ns:latitude><ns:longitude>13.231211</ns:longitude><ns:name>Zwiesel</ns:name><ns:physical_address>Stadtplatz 27</ns:physical_address><ns:physical_city>Zwiesel</ns:physical_city><ns:profile_updated>2011-02-03T21:30:49 -500</ns:profile_updated><ns:snow_updated>2011-02-22T04:07:04 -500</ns:snow_updated></ns:return></ns:getRegionResortsLastUpdatedResponse>